[{"id":"1","name":"Love.Fish","address":"580 Darling Street, Rozelle, NSW","lat":"-33.861034","lng":"151.171936","type":"restaurant"},{"id":"2","name":"Young Henrys","address":"76 Wilford Street, Newtown, NSW","lat":"-33.898113","lng":"151.174469","type":"bar"},{"id":"3","name":"Hunter Gatherer","address":"Greenwood Plaza, 36 Blue St, North Sydney NSW ","lat":"-33.840282","lng":"151.207474","type":"bar"},{"id":"4","name":"The Potting Shed","address":"7A, 2 Huntley Street, Alexandria, NSW","lat":"-33.910751","lng":"151.194168","type":"bar"},{"id":"5","name":"Nomad","address":"16 Foster Street, Surry Hills, NSW","lat":"-33.879917","lng":"151.210449","type":"bar"},{"id":"6","name":"Three Blue Ducks","address":"43 Macpherson Street, Bronte, NSW","lat":"-33.906357","lng":"151.263763","type":"restaurant"},{"id":"7","name":"Single Origin Roasters","address":"60-64 Reservoir Street, Surry Hills, NSW","lat":"-33.881123","lng":"151.209656","type":"restaurant"},{"id":"8","name":"Red Lantern","address":"60 Riley Street, Darlinghurst, NSW","lat":"-33.874737","lng":"151.215530","type":"restaurant"},{"id":"1","name":"Cubbon Park","address":"Kasturba Road, Sampangi Rama Nagara","lat":"12.976347","lng":"77.592926","type":"park"},{"id":"2","name":"Lal Bagh","address":"Mavalli, Bengaluru","lat":"12.950931","lng":"77.584885","type":"park"},{"id":"3","name":"Austin Town Park","address":"Austin Town, Neelasandra, Bengaluru","lat":"12.959944","lng":"77.615189","type":"park"},{"id":"4","name":"NGV Park","address":"KHB Games Village, Koramangala","lat":"12.944615","lng":"77.624352","type":"park"},{"id":"5","name":"Nettakallapa Camp ground","address":"8, Nettakallappa Cir, Basavanagudi","lat":"12.939695","lng":"77.575035","type":"campground"},{"id":"6","name":"Wilson Garden Park","address":"Wilson Garden, Bengaluru","lat":"12.947647","lng":"77.595024","type":"park"}]